[
  {
    "id": "turkey",
    "title": "トルコ横断",
    "subtitle": "空に浮かぶ朝と、海に沈む夕",
    "year": 2024,
    "days": 8,
    "color": "#e74c3c",
    "link": "turkey-travel-journal.html",
    "image": "/assets/images/gallery/cappadocia-thumbnail.webp",
    "cities": [
      { "name": "Cappadocia",  "lat": 38.6431, "lng": 34.8289, "detail": "cappadocia-detail.html" },
      { "name": "Konya",       "lat": 37.8746, "lng": 32.4932, "detail": "konya-detail.html" },
      { "name": "Pamukkale",   "lat": 37.9204, "lng": 29.1187, "detail": "pamukkale-detail.html" },
      { "name": "Ephesus",     "lat": 37.9395, "lng": 27.3417, "detail": "ephesus-detail.html" },
      { "name": "Safranbolu",  "lat": 41.2539, "lng": 32.6927, "detail": "safranbolu-detail.html" },
      { "name": "Istanbul",    "lat": 41.0082, "lng": 28.9784, "detail": "istanbul-detail.html" }
    ]
  },
  {
    "id": "tibet-xian-2016",
    "title": "チベット拉薩・西安 兵馬俑の旅",
    "subtitle": "広州から54時間の列車で標高3,650mへ",
    "year": 2016,
    "days": 11,
    "color": "#8e44ad",
    "link": "tibet-travel-journal.html",
    "image": "/assets/images/gallery/lhasa.webp",
    "cities": [
      { "name": "広州 (Guangzhou)", "lat": 23.1291, "lng": 113.2644, "detail": "tibet-day01.html" },
      { "name": "武昌 (Wuchang)",   "lat": 30.5539, "lng": 114.3162, "detail": "tibet-day01.html" },
      { "name": "ゴルムド (Golmud)", "lat": 36.4021, "lng": 94.9034, "detail": "tibet-day03.html" },
      { "name": "拉薩 (Lhasa)",     "lat": 29.6500, "lng": 91.1000, "detail": "tibet-day04.html" },
      { "name": "ギャンツェ (Gyantse)", "lat": 28.9500, "lng": 89.6300, "detail": "tibet-day05.html" },
      { "name": "シガツェ (Xigaze)", "lat": 29.2500, "lng": 88.8800, "detail": "tibet-day06.html" },
      { "name": "西安 (Xi'an)",     "lat": 34.3416, "lng": 108.9398, "detail": "tibet-day09.html" },
      { "name": "香港 (Hong Kong)", "lat": 22.3193, "lng": 114.1694, "detail": "tibet-day11.html" }
    ]
  },
  {
    "id": "germany-prague-2014",
    "title": "ドイツ縦断、そしてプラハ",
    "subtitle": "ライツパークとフォトキナ、写真家の楽園へ",
    "year": 2014,
    "days": null,
    "color": "#2980b9",
    "link": "germany-travel-journal.html",
    "image": "/assets/images/gallery/cologne.webp",
    "cities": [
      { "name": "フランクフルト (Frankfurt)", "lat": 50.1109, "lng": 8.6821 },
      { "name": "ヴェッツラー (Wetzlar) — Leitz Park", "lat": 50.5520, "lng": 8.5045, "detail": "germany-wetzlar.html" },
      { "name": "ケルン (Köln) — Photokina", "lat": 50.9375, "lng": 6.9603, "detail": "germany-koln.html" },
      { "name": "ハイデルベルク (Heidelberg)", "lat": 49.3988, "lng": 8.6724, "detail": "germany-heidelberg.html" },
      { "name": "シュトゥットガルト (Stuttgart)", "lat": 48.7758, "lng": 9.1829, "detail": "germany-heidelberg.html" },
      { "name": "ニュルンベルク (Nürnberg)", "lat": 49.4521, "lng": 11.0767, "detail": "germany-nurnberg.html" },
      { "name": "プラハ (Praha)", "lat": 50.0755, "lng": 14.4378, "detail": "prague-travel-journal.html" },
      { "name": "ドレスデン (Dresden)", "lat": 51.0504, "lng": 13.7373, "detail": "prague-travel-journal.html" }
    ]
  },
  {
    "id": "italy-2016",
    "title": "イタリア縦断、フォトキナへの旅",
    "subtitle": "ミラノからローマ、そしてケルンへ",
    "year": 2016,
    "days": 10,
    "color": "#27ae60",
    "link": "italy-travel-journal.html",
    "image": "/assets/images/gallery/venice.webp",
    "cities": [
      { "name": "ミラノ (Milano)",       "lat": 45.4642, "lng": 9.1900,  "detail": "italy-milano.html" },
      { "name": "ベネツィア (Venezia)",   "lat": 45.4408, "lng": 12.3155, "detail": "italy-venezia.html" },
      { "name": "フィレンツェ (Firenze)", "lat": 43.7696, "lng": 11.2558, "detail": "italy-firenze.html" },
      { "name": "チンクエ・テッレ (Cinque Terre)", "lat": 44.1461, "lng": 9.6439, "detail": "italy-cinqueterre.html" },
      { "name": "ナポリ (Napoli)",        "lat": 40.8518, "lng": 14.2681, "detail": "italy-napoli.html" },
      { "name": "ローマ (Roma)",          "lat": 41.9028, "lng": 12.4964, "detail": "italy-roma.html" },
      { "name": "ケルン (Köln) — Photokina", "lat": 50.9375, "lng": 6.9603 }
    ]
  },
  {
    "id": "taiwan-visits",
    "title": "台湾、笑顔と美食の島",
    "subtitle": "通い続ける隣人の記録",
    "year": "2024–2026",
    "days": null,
    "color": "#795548",
    "link": "taiwan-travel-journal.html",
    "image": "/assets/images/trips/taiwan/sunmoonlake/01-05.webp",
    "cities": [
      { "name": "台北 (Taipei)", "lat": 25.0330, "lng": 121.5654, "detail": "taiwan-travel-journal.html" },
      { "name": "日月潭 (Sun Moon Lake)", "lat": 23.8516, "lng": 120.9155, "detail": "taiwan-sunmoonlake.html" }
    ]
  },
  {
    "id": "hoian-trilogy",
    "title": "ホイアン、変わらぬ笑顔",
    "subtitle": "三度通った古都の定点観測",
    "year": "2013–2018",
    "days": null,
    "color": "#16a085",
    "link": "hoian-travel-journal.html",
    "image": "/assets/images/trips/hoian/2016/03-03.png",
    "cities": [
      { "name": "ホイアン (Hoi An)", "lat": 15.8801, "lng": 108.3380, "detail": "hoian-travel-journal.html" }
    ]
  },
  {
    "id": "london-2017",
    "title": "ロンドンとバース — 竜一の卒業式の旅",
    "subtitle": "家族で祝う、Prior Park College の晴れの日",
    "year": 2017,
    "days": null,
    "color": "#e84393",
    "link": "london-travel-journal.html",
    "image": null,
    "cities": [
      { "name": "ロンドン (London)", "lat": 51.5074, "lng": -0.1278, "detail": "london-travel-journal.html" },
      { "name": "バース (Bath) — Prior Park College", "lat": 51.3811, "lng": -2.3590, "detail": "london-travel-journal.html" }
    ]
  },
  {
    "id": "france-2017",
    "title": "パリとモンサンミッシェル — 男三人衆の旅",
    "subtitle": "いつもの三人で、ユーロスターに乗って",
    "year": 2017,
    "days": null,
    "color": "#5f27cd",
    "link": "france-travel-journal.html",
    "image": null,
    "cities": [
      { "name": "パリ (Paris)", "lat": 48.8566, "lng": 2.3522, "detail": "france-travel-journal.html" },
      { "name": "モンサンミッシェル (Mont Saint-Michel)", "lat": 48.6361, "lng": -1.5115, "detail": "france-travel-journal.html" }
    ]
  },
  {
    "id": "muine-2018",
    "title": "ムイネーの砂漠、そしてカムラン湾",
    "subtitle": "ドローンと歩いた3日間",
    "year": 2018,
    "days": 3,
    "color": "#34495e",
    "link": "muine-travel-journal.html",
    "image": null,
    "cities": [
      { "name": "ホーチミン (Ho Chi Minh City)", "lat": 10.8231, "lng": 106.6297 },
      { "name": "ムイネー (Mui Ne)", "lat": 10.9330, "lng": 108.2872, "detail": "muine-travel-journal.html" },
      { "name": "カムラン湾 (Cam Ranh Bay)", "lat": 11.9136, "lng": 109.1590, "detail": "muine-travel-journal.html" }
    ]
  },
  {
    "id": "hochiminh-2025",
    "title": "7年ぶりのホーチミン",
    "subtitle": "Leica Elmarit 28mmで捉える進化する街",
    "year": 2025,
    "days": null,
    "color": "#f39c12",
    "link": "hochiminh-travel-journal.html",
    "image": "/assets/images/gallery/vietnam.webp",
    "cities": [
      { "name": "ホーチミン (Ho Chi Minh City)", "lat": 10.8231, "lng": 106.6297, "detail": "hochiminh-travel-journal.html" }
    ]
  }
]
