[
  {
    "id": "turkey",
    "title": "トルコ横断",
    "subtitle": "空に浮かぶ朝と、海に沈む夕",
    "year": 2024,
    "days": 8,
    "color": "#e74c3c",
    "link": "turkey-travel-journal.html",
    "image": "/assets/images/gallery/cappadocia-thumbnail.webp",
    "cities": [
      { "name": "Cappadocia",  "lat": 38.6431, "lng": 34.8289, "detail": "cappadocia-detail.html" },
      { "name": "Konya",       "lat": 37.8746, "lng": 32.4932, "detail": "konya-detail.html" },
      { "name": "Pamukkale",   "lat": 37.9204, "lng": 29.1187, "detail": "pamukkale-detail.html" },
      { "name": "Ephesus",     "lat": 37.9395, "lng": 27.3417, "detail": "ephesus-detail.html" },
      { "name": "Safranbolu",  "lat": 41.2539, "lng": 32.6927, "detail": "safranbolu-detail.html" },
      { "name": "Istanbul",    "lat": 41.0082, "lng": 28.9784, "detail": "istanbul-detail.html" }
    ]
  },
  {
    "id": "tibet-xian-2016",
    "title": "チベット拉薩・西安 兵馬俑の旅",
    "subtitle": "広州から54時間の列車で標高3,650mへ",
    "year": 2016,
    "days": 11,
    "color": "#8e44ad",
    "link": "tibet-travel-journal.html",
    "image": "/assets/images/gallery/lhasa.webp",
    "cities": [
      { "name": "広州 (Guangzhou)", "lat": 23.1291, "lng": 113.2644, "detail": "tibet-day01.html" },
      { "name": "武昌 (Wuchang)",   "lat": 30.5539, "lng": 114.3162, "detail": "tibet-day01.html" },
      { "name": "ゴルムド (Golmud)", "lat": 36.4021, "lng": 94.9034, "detail": "tibet-day03.html" },
      { "name": "拉薩 (Lhasa)",     "lat": 29.6500, "lng": 91.1000, "detail": "tibet-day04.html" },
      { "name": "ギャンツェ (Gyantse)", "lat": 28.9500, "lng": 89.6300, "detail": "tibet-day05.html" },
      { "name": "シガツェ (Xigaze)", "lat": 29.2500, "lng": 88.8800, "detail": "tibet-day06.html" },
      { "name": "西安 (Xi'an)",     "lat": 34.3416, "lng": 108.9398, "detail": "tibet-day09.html" },
      { "name": "香港 (Hong Kong)", "lat": 22.3193, "lng": 114.1694, "detail": "tibet-day11.html" }
    ]
  },
  {
    "id": "prague-2014",
    "title": "プラハの奇跡を求めて",
    "subtitle": "写真家の楽園への旅",
    "year": 2014,
    "days": 3,
    "color": "#2980b9",
    "link": "prague-travel-journal.html",
    "image": "/assets/images/gallery/charlesbridge.webp",
    "cities": [
      { "name": "Nürnberg",  "lat": 49.4521, "lng": 11.0767 },
      { "name": "Praha",     "lat": 50.0755, "lng": 14.4378 },
      { "name": "Dresden",   "lat": 51.0504, "lng": 13.7373 },
      { "name": "Frankfurt", "lat": 50.1109, "lng": 8.6821 }
    ]
  },
  {
    "id": "italy-germany",
    "title": "アルプス越境",
    "subtitle": "エスプレッソからラガーへ",
    "year": 2022,
    "days": 7,
    "color": "#27ae60",
    "link": null,
    "image": null,
    "cities": [
      { "name": "Milano",  "lat": 45.4642, "lng": 9.1900 },
      { "name": "Bolzano", "lat": 46.4983, "lng": 11.3548 },
      { "name": "München", "lat": 48.1351, "lng": 11.5820 }
    ]
  }
]
